[
  {
    "name": "Googleplex, Mountain View",
    "lat": 37.4224,
    "lon": -122.0856,
    "google_elevation": {
      "elevation_m": 6.513143539428711,
      "resolution_m": 4.771975994110107,
      "status": "success"
    },
    "google_geocoding": {
      "address": "Google Building 41, 1600 Amphitheatre Pkwy, Mountain View, CA 94043, USA",
      "country": "United States",
      "state": "California",
      "city": "Mountain View",
      "status": "success"
    },
    "osm_elevation": {
      "elevation_m": 8.0,
      "resolution_m": 90.0,
      "status": "success"
    },
    "osm_geocoding": {
      "address": "Google Building 41, 1600, Amphitheatre Parkway, Mountain View, Santa Clara County, California, 94043, United States",
      "country": "United States",
      "state": "California",
      "city": "Mountain View",
      "status": "success"
    }
  },
  {
    "name": "Mount Everest Base Camp",
    "lat": 28.0026,
    "lon": 86.8528,
    "google_elevation": {
      "elevation_m": 5299.763671875,
      "resolution_m": 38.17580795288086,
      "status": "success"
    },
    "google_geocoding": {
      "address": "2V33+24J Everest Base Camp Helipad, Everest Base Camp Trail, Khumjung 56000, Nepal",
      "country": "Nepal",
      "state": "Koshi Province",
      "city": "Khumjung",
      "status": "success"
    },
    "osm_elevation": {
      "elevation_m": 5303.0,
      "resolution_m": 90.0,
      "status": "success"
    },
    "osm_geocoding": {
      "status": "failed",
      "error": "No locations found"
    }
  },
  {
    "name": "Death Valley",
    "lat": 36.5323,
    "lon": -116.9325,
    "google_elevation": {
      "elevation_m": -80.63458251953125,
      "resolution_m": 9.543951988220215,
      "status": "success"
    },
    "google_geocoding": {
      "address": "G3J9+W2 Furnace Creek, CA, USA",
      "country": "United States",
      "state": "California",
      "city": "Furnace Creek",
      "status": "success"
    },
    "osm_elevation": {
      "elevation_m": -80.0,
      "resolution_m": 90.0,
      "status": "success"
    },
    "osm_geocoding": {
      "address": "Inyo County, California, United States",
      "country": "United States",
      "state": "California",
      "city": null,
      "status": "success"
    }
  },
  {
    "name": "Tokyo Tower",
    "lat": 35.6586,
    "lon": 139.7454,
    "google_elevation": {
      "elevation_m": 23.4789981842041,
      "resolution_m": 9.543951988220215,
      "status": "success"
    },
    "google_geocoding": {
      "address": "4-ch\u014dme-2-8 Shibak\u014den, Minato City, Tokyo 105-0011, Japan",
      "country": "Japan",
      "state": "Tokyo",
      "city": "Minato City",
      "status": "success"
    },
    "osm_elevation": {
      "elevation_m": 43.0,
      "resolution_m": 90.0,
      "status": "success"
    },
    "osm_geocoding": {
      "address": "Tokyo Tower, Tokyo Tower Street, Shibak\u014den 4, Parc de Shiba, Minato, Tokyo, 106-0041, Japan",
      "country": "Japan",
      "state": null,
      "city": "Minato",
      "status": "success"
    }
  },
  {
    "name": "Pacific Ocean",
    "lat": 30.0,
    "lon": -140.0,
    "google_elevation": {
      "elevation_m": -4651.8173828125,
      "resolution_m": 610.8129272460938,
      "status": "success"
    },
    "google_geocoding": {
      "address": "84222222+22",
      "country": null,
      "state": null,
      "city": null,
      "status": "success"
    },
    "osm_elevation": {
      "elevation_m": 0.0,
      "resolution_m": 90.0,
      "status": "success"
    },
    "osm_geocoding": {
      "address": "",
      "country": null,
      "state": null,
      "city": null,
      "status": "success"
    }
  }
]